ID,Station,Latitude,Longitude
1,S Wiesbaden Hauptbahnhof,50.0694776255789,8.24463076002209
2,S Wiesbaden Ost,50.04171927,8.256443567685
3,S Mainz-Kastel,50.0071771003271,8.28353713278707
4,S Hochheim (Main),50.0042792995967,8.35031325105029
5,S Flörsheim (Main),50.0168741569306,8.43067935262115
6,S Eddersheim,50.0384627600871,8.45557861630907
7,S Hattersheim (Main),50.0672648120622,8.48849546950878
8,S Frankfurt-Sindlingen,50.0880420025367,8.51158233625223
9,S Frankfurt-Höchst Farbwerke,50.0978417863389,8.52687073180436
10,S Frankfurt-Höchst,50.1022102043735,8.54237079859728
11,S Frankfurt-Nied,50.1020633693105,8.57228404593505
12,S Frankfurt-Griesheim,50.0939757669359,8.60642732190442
13,S+U Frankfurt Hauptbahnhof,50.1071556459599,8.6637590384402
14,S Frankfurt Taunusanlage,50.1134811900971,8.66876189337365
15,S+U Frankfurt Hauptwache,50.1139601925328,8.67928623518683
16,S+U Frankfurt Konstablerwache,50.114684730761,8.68785184283847
17,S Frankfurt Ostendstraße,50.1124973248633,8.69700928058798
18,S Frankfurt Mühlberg,50.1018957537151,8.69970377088454
19,S Offenbach-Kaiserlei,50.105178285182,8.73731304435296
20,S Offenbach Ledermuseum,50.1059155610052,8.7495822082818
21,S Offenbach Marktplatz,50.1052657740613,8.76566072544212
22,S Offenbach Ost,50.102443021889,8.78437642972009
23,S Offenbach-Bieber,50.0905548527561,8.80838121846017
24,S Offenbach-Waldhof,50.0822083638948,8.82927407782843
25,S Obertshausen,50.0734482586806,8.85308050387613
26,S Rodgau-Weiskirchen,50.0525652638485,8.87784463494358
27,S Rodgau-Hainhausen,50.0409105099146,8.87480293102178
28,S Rodgau-Jügesheim,50.0257660746264,8.87895890829259
29,S Rodgau-Dudenhofen,50.0103442321321,8.88460567038357
30,S Rodgau-Nieder-Roden,49.9970512430655,8.87113665041137
31,S Rodgau-Rollwald,49.9883110047109,8.84753800847478
32,S Rödermark-Ober-Roden,49.9735585087865,8.82876518899048
33,S Niedernhausen (Taunus),50.1599905681191,8.31231142370937
34,S Niederjosbach,50.149757981785,8.35113053457298
35,S Eppstein-Bremthal,50.1404328721699,8.36539919853209
36,S Eppstein,50.139966421193,8.3873814767656
37,S Lorsbach,50.1148405557976,8.42293462853334
38,S Hofheim (Taunus),50.0842614789766,8.44449752950969
39,S Kriftel,50.0826404196972,8.47683321642102
40,S Frankfurt-Zeilsheim,50.0905031779691,8.50680614148816
41,S Heusenstamm,50.0604614245707,8.80136442432921
42,S Dietzenbach-Steinberg,50.0233091404132,8.79389798183064
43,S Dietzenbach Mitte,50.0177785894313,8.78808922492533
44,S Dietzenbach Bahnhof,50.0079735152488,8.78509108057952
45,S Bad Soden (Taunus),50.1435159733666,8.50395365442553
46,S Sulzbach (Taunus) Nord,50.1387538064818,8.51524935298774
47,S Schwalbach (Taunus) Limes,50.1545850591959,8.52821478032646
48,S Schwalbach (Taunus) Nord,50.1597983345359,8.53464291995765
49,S Niederhöchstadt,50.1543006614421,8.54713574644375
50,S Eschborn,50.1440306651598,8.56038293228714
51,S Eschborn Süd,50.1340782628986,8.57731412974787
52,S Frankfurt-Rödelheim,50.1251559128221,8.60694123792723
53,S Frankfurt West,50.1194445208479,8.63945538730144
54,S Frankfurt Messe,50.111311564362,8.6434307958359
55,S Frankfurt Galluswarte,50.1041851490825,8.64437820703805
56,S Frankfurt Lokalbahnhof,50.1019568661286,8.69212762236088
57,S+U Frankfurt Süd,50.0993255005292,8.68644197186271
58,S Frankfurt Stresemannallee,50.0946930636423,8.67251079749213
59,S Frankfurt-Louisa,50.0838821975399,8.67092162971055
60,S Neu-Isenburg,50.0511504320507,8.66537850279028
61,S Dreieich-Buchschlag,50.0220007952228,8.66133856479598
62,S Langen-Flugsicherung,50.0048483578854,8.65872481314982
63,S Langen (Hess),49.9935876744102,8.65715874008853
64,S Egelsbach,49.9680091386232,8.65393911309397
65,S Erzhausen,49.9511516041026,8.65084101045382
66,S Darmstadt-Wixhausen,49.93096695207,8.64758818426645
67,S Darmstadt-Arheilgen,49.913617910656,8.64555635266754
68,S Darmstadt Hauptbahnhof,49.871937365921,8.63114317546309
69,S Kronberg (Taunus),50.1802102727884,8.51582451534459
70,S Kronberg (Taunus) Süd,50.1733511529183,8.52906614164413
71,S Friedrichsdorf (Taunus),50.2524512154999,8.64427332324925
72,S Seulberg,50.2415885019849,8.64634462077544
73,S Bad Homburg,50.2198875114252,8.62100318716396
74,S+U Oberursel (Taunus),50.1992628790661,8.58886874847657
75,S Oberursel-Stierstadt,50.1859554713272,8.58579037647455
76,S Oberursel-Weiskirchen/Steinbach,50.1740739160709,8.58677485281224
77,S Friedberg (Hess),50.332742813601,8.7612461334361
78,S Bruchenbrücken,50.3022473027896,8.78837566588405
79,S Nieder-Wöllstadt,50.2801458384552,8.76738700014857
80,S Okarben,50.2531926585839,8.75376269281051
81,S Groß Karben,50.2320121302865,8.75381544655459
82,S Dortelweil,50.2073641369415,8.75095819825304
83,S Bad Vilbel,50.1885498761568,8.73960161624981
84,S Bad Vilbel Süd,50.1786287571865,8.73343951567526
85,S Frankfurt-Berkersheim,50.1760771496179,8.69732215847091
86,S Frankfurt-Frankfurter Berg,50.1702314598965,8.67650297360721
87,S Frankfurt-Eschersheim,50.158141178062,8.65513189270791
88,S Frankfurt-Niederrad,50.0807787786968,8.63709041871157
89,S Frankfurt Stadion,50.0680804381504,8.6329678681741
90,S Zeppelinheim,50.0365446658885,8.60626810333659
91,S Walldorf (Hess),50.0017356775896,8.5811380858411
92,S Mörfelden,49.9788867450547,8.5653449760635,
93,S Groß Gerau-Dornberg,49.9120970155527,8.49457784129239
94,S Groß Gerau-Dornheim,49.8774700651977,8.49368680203086
95,S Riedstadt-Wolfskehlen,49.8545950893692,8.49309118976889
96,S Riedstadt-Goddelau,49.834436427267,8.49071623817963
97,S Mainz Nord,50.0200091415494,8.24560143161208
98,S Mainz Hauptbahnhof,50.0018624361846,8.25898292462814
99,S Mainz Römisches Theater,49.9933529880086,8.27827551547426
100,S Mainz-Gustavsburg,49.9943637628883,8.3145209459887
101,S Mainz-Bischofsheim,49.9934257554782,8.35804601567059
102,S Rüsselsheim Opelwerk,49.9882048465472,8.40059052124823
103,S Rüsselsheim,49.9920140497686,8.4141402143537
104,S Raunheim,50.0098519241585,8.45491102067023
105,S Kelsterbach,50.0633997000869,8.52909459388077
106,S Frankfurt Flughafen Regionalbahnhof,50.0512016673847,8.57142312355289
107,S Frankfurt Gateway Gardens,50.0566432217445,8.59463923430883
108,U Ginnheim,50.1404396089181,8.64622226964767
109,U Niddapark,50.1437536938223,8.64219683804675
110,U Römerstadt,50.1534334070002,8.6383887535019
111,U Nordwestzentrum,50.158760753706,8.63427638512243
112,U Heddernheimer Landstraße,50.1636983369263,8.6348965615221
113,U Zeilweg,50.1645490152666,8.64248975256898
114,U Heddernheim,50.1619529838726,8.64910069383044
115,U Weißer Stein,50.1567787893767,8.65652702355233
116,U Lindenbaum,50.1525859212542,8.66149624831493
117,U Hügelstraße,50.1480594411516,8.66620109112375
118,U Fritz-Tarnow-Straße,50.1429151679732,8.66869895369848
119,U Dornbusch,50.1386406178603,8.67039300518191
120,U Miquel-/Adickesallee,50.1314621603081,8.67207858743224
121,U Holzhausenstraße,50.1267112323764,8.67383109894649
122,U Grüneburgweg,50.1216456194473,8.67558538385477
123,U Eschenheimer Tor,50.1174929652642,8.67913684459381
124,U Willy-Brandt-Platz,50.1089915523587,8.67389531398782
125,U Schweizer Platz,50.1018636164865,8.68087640741242
126,U Bad Homburg-Gonzenheim,50.2190411418684,8.64043000134711
127,U Ober-Eschbach,50.2152078725689,8.65110674420542
128,U Nieder-Eschbach,50.1992526685332,8.6704108221908
129,U Bonames Mitte,50.1852828281128,8.66443002952709
130,U Kalbach,50.1830617356647,8.65807506414129
131,U Riedwiese/Mertonviertel,50.1713741098312,8.6429848320293
132,U Sandelmühle,50.1661033951662,8.64512344904529
133,U Oberursel-Hohemark,50.2155178904005,8.5364556679504
134,U Oberursel Waldlust,50.2151955887347,8.54361816879903
135,U Oberursel Rosengärtchen,50.2151717253733,8.54902645823487
136,U Oberursel Kupferhammer,50.2144633670939,8.55652864397077
137,U Oberursel Glöcknerwiese,50.2136192430256,8.56152404012147
138,U Oberursel Lahnstraße,50.2099152766888,8.57116809191049
139,U Oberursel Altstadt,50.2060325134343,8.57882309771179
140,U Oberursel Stadtmitte,50.2026222163226,8.58549230386583
141,U Oberursel-Bommersheim,50.1930959614075,8.59408911733176
142,U Oberursel-Weißkirchen Ost,50.1859472636282,8.60145863653065
143,U Niederursel,50.1691886573118,8.62277535213349
144,U Wiesenau,50.1669720469261,8.62960901849086
146,U Bockenheimer Warte,50.1199469680635,8.65392369415885
147,U Festhalle/Messe,50.1125399964877,8.65427057530527
148,U Dom/Römer,50.1108536970268,8.68408811025014
149,U Merianplatz,50.1200266078371,8.69525597123521
150,U Höhenstraße,50.1230365234982,8.70148755617725
151,U Bornheim Mitte,50.1263435161451,8.70801179109627
152,U Seckbacher Landstraße,50.1345073227601,8.7118785536374
153,U Schäfflestraße,50.1311528856813,8.73409431763742
154,U Gwinnerstraße,50.1336591689204,8.74118568204064
155,U Kruppstraße,50.1379007272111,8.74442203437507
156,U Hessen-Center,50.1404458686989,8.74896880184644
157,U Enkheim,50.142560103884,8.75389596935156
158,U Musterschule,50.1217024506243,8.68647789994039
159,U Glauburgstraße,50.1265372109651,8.68573316691844
160,U Deutsche Nationalbibliothek,50.1314320486359,8.68393893667794
161,U Hauptfriedhof,50.1362878050009,8.68431264848082
162,U Marbachweg/Sozialzentrum,50.1422941362252,8.68462292867165
163,U Gießener Straße,50.143587804726,8.69097968967636
164,U Theobald-Ziegler-Straße,50.1477480215174,8.69012748252931
165,U Ronneburgstraße,50.1507646937134,8.68861092153642
166,U Sigmund-Freud-Straße,50.1549207099983,8.68620519744139
167,U Preungesheim,50.1585207276356,8.68766503600601
168,U Hausen,50.1382861472143,8.62461263110021
169,U Große Nelkenstraße,50.1329311250846,8.62840283094278
170,U Industriehof,50.1289965148763,8.62938424920706
171,U Kirchplatz,50.1250758690854,8.63766513819756
172,U Leipziger Straße,50.1225833272228,8.64569643766405
173,U Westend,50.1181304750261,8.66295525060578
174,U Alte Oper,50.1154292057818,8.67091559030239
175,U Zoo,50.1155133075297,8.69864009009925
176,U Frankfurt Ostbahnhof,50.1127226048873,8.70775891466154
177,U Heerstraße,50.1443519809334,8.60748368905621
178,U Friedhof Westhausen,50.139396218179,8.61221027539129
179,U Stephan-Heise-Straße,50.1355960038464,8.61572376753029
180,U Hausener Weg,50.1315633109396,8.6196581250126
181,U Fischstein,50.1293419081631,8.6249482072356
182,U Habsburgerallee,50.1174351978282,8.70842938772991
183,U Parlamentsplatz,50.11961187757,8.71245715791945
184,U Eissporthalle/Festplatz,50.1234539749403,8.71745433555319
185,U Johanna-Tesch-Platz,50.1279081571107,8.72665825915436
186,U Riedberg,50.1789117844019,8.63553681797141
187,U Uni Campus Riedberg,50.1754907215268,8.62833937207145
188,S Mühlheim (Main),50.1193150268462,8.83817530752825
189,S Mühlheim-Dietesheim,50.1207104754766,8.86057117020071
190,S Hanau-Steinheim,50.1216027711501,8.90826501476116
191,S Hanau Hauptbahnhof,50.1213471231763,8.92841506580465
